{"type":"FeatureCollection","features":[{"type":"Feature","properties":{"title":"dubai-marina","name":"Dubai Marina"},"geometry":{"type":"Point","coordinates":[55.141209,25.080281]}},{"type":"Feature","properties":{"title":"burj-khalifa","name":"Burj Khalifa"},"geometry":{"type":"Point","coordinates":[55.274387,25.197525]}},{"type":"Feature","properties":{"title":"palm-jebel-ali","name":"Palm Jebel Ali"},"geometry":{"type":"Point","coordinates":[54.9873,25.0073]}},{"type":"Feature","properties":{"title":"burj-al-arab","name":"Burj Al Arab"},"geometry":{"type":"Point","coordinates":[55.185307,25.141336]}},{"type":"Feature","properties":{"title":"palm-jumeirah","name":"Palm Jumeirah"},"geometry":{"type":"Point","coordinates":[55.138974,25.112553]}},{"type":"Feature","properties":{"title":"bluewaters","name":"Bluewaters Island"},"geometry":{"type":"Point","coordinates":[55.125026,25.07937]}},{"type":"Feature","properties":{"title":"dubai-frame","name":"Dubai Frame"},"geometry":{"type":"Point","coordinates":[55.301445,25.237839]}}]}